,City,Cloudiness,Country,Date,Humidity,Max Temp,Wind Speed,Lat,Lng
0,Mataura,100,NZ,1580135151,96,287.04,1.34,-46.19,168.86
1,Cockburn Town,75,TC,1580134852,69,299.15,4.6,21.46,-71.14
2,Ulaangom,0,MN,1580135151,87,252.78,1.25,49.98,92.07
3,Deputatsky,100,RU,1580135151,75,242.07,1.76,69.3,139.9
4,Mount Isa,90,AU,1580135152,83,299.15,2.6,-20.73,139.5
5,Tambo,95,PE,1580135152,77,285.42,2.64,-14.8,-73.92
6,Jamestown,90,US,1580135152,100,274.15,4.6,42.1,-79.24
7,Port Alfred,62,ZA,1580135152,69,295.37,1.34,-33.59,26.89
8,Bredasdorp,100,ZA,1580135152,46,296.15,4.1,-34.53,20.04
9,Natal,40,BR,1580134976,59,305.15,8.2,-5.79,-35.21
10,George Town,20,MY,1580135099,79,302.15,2.6,5.41,100.34
11,Sabha,67,LY,1580135153,10,298.14,1.98,27.04,14.43
12,Puerto Ayora,75,EC,1580135118,78,299.15,3.1,-0.74,-90.35
13,Paamiut,10,GL,1580135153,63,265.13,9.63,61.99,-49.67
14,Amazar,10,RU,1580135153,97,252.24,0.98,53.86,120.88
15,Byron Bay,40,AU,1580135153,78,299.15,2.1,-28.65,153.62
16,Ushuaia,75,AR,1580134925,54,285.15,6.7,-54.8,-68.3
17,Busselton,0,AU,1580135154,32,297.59,5.37,-33.65,115.33
18,San Patricio,20,MX,1580135154,77,294.15,2.75,19.22,-104.7
19,Upernavik,62,GL,1580135154,95,245.41,1.27,72.79,-56.15
20,Rikitea,13,PF,1580135154,81,299.15,5.51,-23.12,-134.97
21,Tasiilaq,90,GL,1580135154,50,274.15,1.5,65.61,-37.64
22,Jinka,93,ET,1580135155,58,299.8,0.44,5.65,36.65
23,Khatanga,100,RU,1580135045,97,246.7,0.85,71.97,102.5
24,San Julian,0,MX,1580135155,60,285.67,1.02,21.02,-102.17
25,Riyadh,0,SA,1580134923,26,289.15,3.1,24.69,46.72
26,Mergen,50,CN,1580135155,98,254.4,2.56,49.18,125.22
27,Ponta do Sol,40,PT,1580135156,63,292.15,5.7,32.67,-17.1
28,Provideniya,7,RU,1580135156,97,249.16,0.58,64.38,-173.3
29,Mar del Plata,0,AR,1580134890,65,294.82,5.36,-38.0,-57.56
30,Sri Aman,100,MY,1580135156,100,298.15,0.96,1.24,111.46
31,Clarence Town,0,AU,1580135156,73,298.15,3.1,-32.58,151.78
32,Nadadores,5,MX,1580135156,44,287.15,0.9,27.05,-101.6
33,El Batey,20,DO,1580135157,78,300.37,4.1,19.77,-70.52
34,Hithadhoo,2,MV,1580135157,80,300.9,6.23,-0.6,73.08
35,Vaini,20,TO,1580135157,100,297.15,1.0,-21.2,-175.2
36,Vila Franca do Campo,75,PT,1580135157,88,290.15,7.7,37.72,-25.43
37,Butaritari,93,KI,1580135157,79,302.34,9.84,3.07,172.79
38,Wolbrom,20,PL,1580135158,69,278.15,2.6,50.38,19.76
39,Qaanaaq,77,GL,1580135158,58,248.63,0.33,77.48,-69.36
40,Saint George,1,US,1580134909,69,277.15,1.5,37.1,-113.58
41,Yafran,0,LY,1580135158,49,288.18,4.91,32.06,12.53
42,Cherskiy,100,RU,1580135158,88,246.68,0.95,68.75,161.3
43,Sobolevo,100,RU,1580135159,98,272.73,2.47,54.43,31.9
44,Marawi,93,PH,1580135159,88,299.26,1.34,8.0,124.29
45,Ilulissat,75,GL,1580135159,60,259.15,0.5,69.22,-51.1
46,Assiut,0,EG,1580135159,32,294.15,2.6,27.18,31.18
47,Carnarvon,0,AU,1580135071,94,298.15,6.7,-24.87,113.63
48,Nyurba,93,RU,1580135159,99,242.27,0.42,63.28,118.33
49,Punta Arenas,100,CL,1580135160,54,286.15,6.2,-53.15,-70.92
50,Henties Bay,0,NA,1580135160,43,298.71,5.9,-22.12,14.28
51,New Norfolk,100,AU,1580135160,48,289.26,3.6,-42.78,147.06
52,Hambantota,100,LK,1580135160,83,299.15,2.1,6.12,81.12
53,Faanui,86,PF,1580135160,74,301.25,3.55,-16.48,-151.75
54,Lucapa,87,AO,1580135160,86,298.37,2.03,-8.42,20.74
55,Gobabis,66,NA,1580135161,11,305.14,4.21,-22.45,18.97
56,Kavieng,33,PG,1580135161,77,302.06,4.44,-2.57,150.8
57,Baicheng,59,CN,1580135161,93,259.8,3.25,45.62,122.82
58,Norman Wells,90,CA,1580135161,68,244.15,7.2,65.28,-126.83
59,Hilo,75,US,1580135161,73,294.15,2.6,19.73,-155.09
60,Sandwick,40,GB,1580135162,70,279.15,9.3,60.0,-1.25
61,Berlevag,40,NO,1580135162,85,262.15,3.6,70.86,29.09
62,Port Hedland,28,AU,1580134955,79,304.15,4.6,-20.32,118.57
63,Amapa,96,BR,1580135162,67,302.65,1.77,1.0,-52.0
64,Castro,13,BR,1580134893,48,300.7,2.74,-24.79,-50.01
65,Cape Town,100,ZA,1580134288,46,295.93,8.7,-33.93,18.42
66,Marzuq,0,YE,1580135163,26,291.1,4.05,14.4,46.47
67,Yangi Marg`ilon,40,UZ,1580135163,62,277.15,1.0,40.43,71.72
68,Olden,75,NO,1580135163,93,277.15,0.5,61.84,6.81
69,Palmer,75,US,1580135163,74,277.04,2.6,42.16,-72.33
70,Port Elizabeth,100,ZA,1580135163,56,294.15,8.7,-33.92,25.57
71,Sur,0,OM,1580134967,54,291.88,10.63,22.57,59.53
72,Ponta Delgada,75,PT,1580135164,88,290.15,7.7,37.73,-25.67
73,Sayyan,0,YE,1580135164,39,285.24,4.84,15.17,44.32
74,Beloha,97,MG,1580135164,67,299.81,2.23,-25.17,45.05
75,Vardo,20,NO,1580135164,78,267.15,6.2,70.37,31.11
76,Iqaluit,90,CA,1580135164,69,249.26,0.8,63.75,-68.51
77,Bluff,100,NZ,1580135164,96,287.04,1.34,-46.6,168.33
78,Hobart,100,AU,1580135165,48,289.26,3.6,-42.88,147.33
79,Ribeira Grande,75,PT,1580135165,100,290.15,6.7,38.52,-28.7
80,Devonport,100,AU,1580135165,89,284.82,0.45,-41.17,146.35
81,Yellowknife,90,CA,1580135165,84,260.93,4.6,62.46,-114.35
82,Recea,40,RO,1580135165,93,279.26,1.5,47.63,23.52
83,Saint-Philippe,40,RE,1580135165,61,300.15,7.7,-21.36,55.77
84,Sitka,75,US,1580135166,80,275.15,5.1,57.05,-135.33
85,Abu Samrah,100,SY,1580135166,77,284.08,0.85,35.3,37.18
86,Albany,90,US,1580135160,74,276.48,1.5,42.6,-73.97
87,San Quintin,100,MX,1580135166,81,286.85,1.91,30.48,-115.95
88,Mersa Matruh,20,EG,1580135166,48,290.15,2.6,31.35,27.25
89,Coyhaique,34,CL,1580135166,67,291.15,4.1,-45.58,-72.07
90,Lastoursville,53,GA,1580135167,38,306.49,1.24,-0.81,12.73
91,Vao,91,NC,1580135167,82,298.53,6.16,-22.67,167.48
92,Atuona,7,PF,1580135167,78,300.32,5.27,-9.8,-139.03
93,Shingu,100,JP,1580135167,88,287.79,16.87,33.73,135.98
94,Huarmey,87,PE,1580135167,62,299.14,2.59,-10.07,-78.15
95,Valparaiso,90,CL,1580135069,100,292.15,1.5,-33.04,-71.63
96,Northam,40,GB,1580135168,87,280.93,4.1,51.03,-4.22
97,Taybad,0,IR,1580135168,65,275.79,9.0,34.74,60.78
98,Nanortalik,90,GL,1580135168,63,268.13,15.78,60.14,-45.24
99,Pandamatenga,56,BW,1580135168,35,305.02,1.85,-18.53,25.63
100,Ojinaga,1,MX,1580135168,45,279.15,1.5,29.57,-104.42
101,Hobyo,100,SO,1580135168,69,299.73,10.3,5.35,48.53
102,Great Bend,1,US,1580135168,92,273.71,4.1,38.36,-98.76
103,Avarua,0,CK,1580135169,94,298.15,6.7,-21.21,-159.78
104,Saint Anthony,90,US,1580135169,79,269.26,2.6,45.02,-93.22
105,Barrow,90,US,1580135169,75,245.15,4.1,71.29,-156.79
106,Kapaa,20,US,1580135169,78,296.15,5.1,22.08,-159.32
107,Cidreira,90,BR,1580135169,62,301.84,5.01,-30.18,-50.21
108,Mahebourg,75,MU,1580135170,78,298.15,3.64,-20.41,57.7
109,Batemans Bay,100,AU,1580135170,95,293.71,0.45,-35.72,150.18
110,East London,20,ZA,1580135170,60,295.15,6.7,-33.02,27.91
111,Rapar,0,IN,1580135170,53,294.82,5.25,23.57,70.63
112,Poum,0,NC,1580135170,81,299.74,9.13,-20.23,164.02
113,Moerai,95,PF,1580135170,76,300.0,4.97,-22.43,-151.33
114,Severo-Kuril'sk,86,RU,1580135171,91,269.01,6.16,50.68,156.12
115,Port Macquarie,0,AU,1580135171,83,295.93,4.1,-31.43,152.92
116,Quatre Cocos,75,MU,1580135171,78,298.15,8.08,-20.21,57.76
117,Longyearbyen,75,SJ,1580135171,77,257.15,3.1,78.22,15.64
118,Nyaunglebin,0,MM,1580135171,51,289.2,1.51,17.95,96.73
119,Imeni Babushkina,69,RU,1580135171,93,256.7,2.6,59.76,43.13
120,Saskylakh,82,RU,1580135172,97,244.45,1.25,71.92,114.08
121,Okhotsk,82,RU,1580135172,72,246.1,4.09,59.38,143.3
122,Forecariah,100,GN,1580135172,6,311.47,2.56,9.43,-13.09
123,Baykit,100,RU,1580135017,95,256.17,1.11,61.67,96.37
124,Ahipara,0,NZ,1580135172,100,290.93,3.07,-35.17,173.17
125,Vostok,0,RU,1580135173,75,259.98,1.38,46.49,135.88
126,Pemberton,91,CA,1580135173,97,268.5,1.82,50.32,-122.8
127,Naze,75,JP,1580135173,68,292.15,8.2,28.37,129.48
128,Narrabri,0,AU,1580135173,51,301.15,4.1,-30.32,149.78
129,Alofi,75,NU,1580135173,100,296.15,0.5,-19.06,-169.92
130,Bambous Virieux,75,MU,1580135173,78,298.15,7.07,-20.34,57.76
131,Klaksvik,78,FO,1580135174,63,277.15,5.1,62.23,-6.59
132,Nikolskoye,90,RU,1580135174,68,269.26,6.0,59.7,30.79
133,Ginir,81,ET,1580135174,84,290.55,1.45,7.13,40.7
134,Santander,40,ES,1580135174,71,287.15,0.5,43.46,-3.8
135,Hamamatsu,90,JP,1580135174,87,280.15,8.2,34.7,137.73
136,Khandyga,100,RU,1580135174,98,243.98,0.81,62.67,135.6
137,Pisco,52,PE,1580135175,30,295.93,4.6,-13.7,-76.22
138,Dikson,100,RU,1580135175,96,250.98,1.62,73.51,80.55
139,Kaitangata,91,NZ,1580135175,89,287.17,4.69,-46.28,169.85
140,Swellendam,100,ZA,1580135175,46,296.15,4.1,-34.02,20.44
141,Hermanus,100,ZA,1580135175,63,295.37,3.58,-34.42,19.23
142,Zhalantun,0,CN,1580135175,86,260.06,1.92,48.0,122.72
143,Kavaratti,0,IN,1580135176,65,300.3,1.73,10.57,72.64
144,Carupano,67,VE,1580135176,49,301.76,2.45,10.67,-63.26
145,Tuktoyaktuk,90,CA,1580135176,68,247.15,7.7,69.45,-133.04
146,Hong Kong,20,HK,1580135034,62,286.15,4.1,22.29,114.16
147,Westport,90,US,1580135176,69,278.71,4.1,41.14,-73.36
148,Esperance,0,AU,1580135177,82,293.15,4.1,-33.87,121.9
149,Caravelas,98,BR,1580135177,81,300.27,6.28,-17.71,-39.25
150,Aswan,13,EG,1580135177,19,295.28,4.22,24.09,32.91
151,Monrovia,0,LR,1580135177,64,302.92,5.46,6.3,-10.8
152,Flin Flon,90,CA,1580135178,92,264.15,3.6,54.77,-101.86
153,Kalemie,100,CD,1580135178,94,292.05,1.06,-5.95,29.19
154,Bethel,90,US,1580135014,74,278.15,4.1,41.37,-73.41
155,Artyom,7,AZ,1580135178,81,281.15,5.1,40.47,50.33
156,Boyolangu,64,ID,1580135178,90,297.97,0.22,-8.12,111.89
157,Tabou,18,CI,1580135178,65,303.51,3.33,4.42,-7.35
158,Sivaki,0,RU,1580135178,97,247.91,2.18,52.63,126.75
159,Lakselv,57,NO,1580135179,83,256.15,7.7,70.05,24.97
160,Beitbridge,4,ZW,1580135179,49,303.87,13.36,-22.22,30.0
161,Leningradskiy,99,RU,1580135179,96,251.28,3.93,69.38,178.42
162,Chokurdakh,100,RU,1580135179,97,242.31,1.63,70.63,147.92
163,Atambua,66,ID,1580135180,87,298.24,0.91,-9.11,124.89
164,Zelenikovo,20,MK,1580135180,87,281.15,0.3,41.89,21.59
165,Kwidzyn,76,PL,1580135180,92,275.93,3.14,53.72,18.93
166,Maun,75,BW,1580135180,28,309.15,3.1,-19.98,23.42
167,Anadyr,75,RU,1580135180,84,257.15,2.15,64.75,177.48
168,Portales,1,US,1580135180,64,280.15,7.2,34.19,-103.33
169,Margate,40,GB,1580135181,93,283.15,4.6,51.38,1.39
170,Berja,0,ES,1580135181,72,288.15,2.6,36.85,-2.95
171,Tual,100,ID,1580135181,74,301.98,3.66,-5.67,132.75
172,College,1,US,1580135181,73,243.71,1.61,64.86,-147.8
173,Banes,20,CU,1580135182,94,294.15,1.0,20.96,-75.72
174,Kahului,1,US,1580135182,82,293.71,6.7,20.89,-156.47
175,Xalpatlahuac,0,MX,1580135182,46,291.8,0.19,17.47,-98.62
176,Arraial do Cabo,40,BR,1580135182,74,302.15,8.2,-22.97,-42.03
177,Oktyabrskiy,100,RU,1580135182,94,262.78,5.26,54.48,53.47
178,Ixtapa,5,MX,1580135182,88,292.04,2.6,20.7,-105.2
179,Lavumisa,73,SZ,1580135182,42,303.15,4.6,-27.31,31.89
180,Vancouver,75,CA,1580134976,87,281.15,3.6,49.25,-123.12
181,Avera,90,US,1580135183,100,282.15,3.1,33.19,-82.53
182,Zonguldak,75,TR,1580135183,46,285.15,1.83,41.25,31.83
183,Mitsamiouli,20,KM,1580135183,66,304.15,3.6,-11.38,43.28
184,Tessalit,100,ML,1580135183,5,305.33,4.16,20.2,1.01
185,Muroto,100,JP,1580135183,95,286.44,9.58,33.28,134.15
186,Dingle,7,PH,1580135184,88,296.15,2.03,11.0,122.67
187,Lethem,31,GY,1580135184,39,307.72,5.45,3.38,-59.8
188,Killybegs,40,IE,1580135184,68,278.15,8.2,54.63,-8.45
189,Walvis Bay,0,NA,1580135184,47,299.15,4.1,-22.96,14.51
190,Fomboni,8,KM,1580135184,64,301.83,1.77,-12.28,43.74
191,Moron,0,AR,1580135172,40,299.26,5.1,-34.65,-58.62
192,Raudeberg,75,NO,1580135185,93,278.15,6.2,61.99,5.14
193,La Ronge,90,CA,1580135185,85,264.15,2.1,55.1,-105.28
194,Lebu,16,CL,1580135185,33,297.96,4.34,-37.62,-73.65
195,Petropavlovsk-Kamchatsky,100,RU,1580135185,79,271.15,3.0,53.05,158.65
196,Verkhniy Mamon,99,RU,1580135185,92,273.13,3.78,50.16,40.38
197,Yuncheng,0,CN,1580135024,64,274.06,1.75,35.02,110.99
198,Pevek,17,RU,1580135185,99,249.67,1.87,69.7,170.31
199,Hualmay,43,PE,1580135186,67,298.06,2.86,-11.1,-77.61
200,Jishou,94,CN,1580135186,86,274.83,1.31,28.32,109.72
201,Prince George,90,CA,1580134956,92,275.15,6.7,53.92,-122.75
202,Kedrovyy,100,RU,1580135186,72,261.15,3.0,56.17,91.82
203,Libertador General San Martin,100,AR,1580135186,98,290.38,0.5,-23.81,-64.79
204,Evensk,100,RU,1580135186,84,264.57,4.2,61.95,159.23
205,Borgosesia,40,IT,1580135187,50,284.26,1.5,45.71,8.28
206,Augusto Correa,100,BR,1580135187,96,298.2,2.53,-1.02,-46.63
207,Dongying,85,CN,1580135187,64,274.47,1.86,37.46,118.49
208,Quesnel,90,CA,1580134925,64,277.15,2.6,53.0,-122.5
209,Sainte-Suzanne,20,RE,1580135187,65,300.15,6.2,-20.91,55.61
210,Ostrovskoye,48,RU,1580135188,94,259.35,2.38,57.81,42.24
211,Gahanna,90,US,1580134911,74,274.82,3.6,40.02,-82.88
212,Abrau-Dyurso,20,RU,1580135188,81,283.15,8.0,44.69,37.59
213,Farias Brito,75,BR,1580135188,62,304.15,1.0,-6.93,-39.57
214,Khash,0,IR,1580135188,43,278.8,6.91,28.22,61.22
215,Port-Cartier,90,CA,1580135188,79,271.48,7.2,50.03,-66.87
216,Troitskoye,100,RU,1580135189,90,268.6,4.4,52.98,84.68
217,Lata,75,PT,1580135189,87,289.26,4.1,40.16,-8.33
218,Lianran,40,CN,1580135189,65,283.15,4.0,24.92,102.48
219,Waddan,0,LY,1580135189,26,293.22,6.8,29.16,16.14
220,Mossamedes,40,AO,1580135189,69,300.15,5.1,-15.2,12.15
221,Fukuecho,90,JP,1580135190,93,284.15,8.7,32.69,128.84
222,Marevo,100,RU,1580135190,96,272.15,3.7,57.31,32.08
223,Anloga,23,GH,1580135190,36,307.15,3.1,5.79,0.9
224,Chicama,75,PE,1580135190,88,295.15,3.1,-7.84,-79.15
225,Kandrian,78,PG,1580135190,95,297.39,2.53,-6.22,149.55
226,Solnechnyy,23,RU,1580135190,86,255.27,1.01,50.72,136.63
227,Nalut,0,LY,1580135190,31,292.85,6.78,30.33,10.85
228,Sucua,20,EC,1580135191,69,297.15,1.5,-2.47,-78.17
229,Tartagal,90,AR,1580135191,73,298.15,5.1,-22.52,-63.8
230,San Carlos,100,VE,1580135049,39,307.12,1.67,9.66,-68.58
231,Arrondissement de Verdun,100,FR,1580135191,95,280.37,3.58,49.25,5.33
232,Fairbanks,1,US,1580135190,73,243.71,2.05,64.84,-147.72
233,Rudnichnyy,95,RU,1580135192,96,254.05,2.49,59.62,52.47
234,Sawakin,0,SD,1580135192,64,296.42,6.69,19.11,37.33
235,Abha,20,SA,1580135192,45,290.15,3.1,18.22,42.51
236,Yulara,0,AU,1580135192,17,303.15,3.6,-25.24,130.99
237,Hofn,75,IS,1580135192,63,274.15,3.6,64.25,-15.21
238,Kununurra,100,AU,1580135192,79,302.15,1.5,-15.77,128.73
239,Ciego de Avila,0,CU,1580134927,68,297.1,1.99,21.84,-78.76
240,Morgan City,90,US,1580135193,100,285.93,3.6,29.7,-91.21
241,Nadym,96,RU,1580135193,98,250.7,5.31,65.53,72.52
242,Shelburne,75,CA,1580135193,90,273.15,3.6,44.08,-80.2
243,Constitucion,0,CL,1580135002,32,297.79,4.89,-35.33,-72.42
244,Lorengau,100,PG,1580135194,79,302.21,5.69,-2.02,147.27
245,Bereda,75,ES,1580135194,77,288.71,8.2,43.27,-7.54
246,Touros,75,BR,1580135194,62,304.15,6.2,-5.2,-35.46
247,Sangar,86,RU,1580135194,98,241.19,0.71,63.92,127.47
248,Vanimo,67,PG,1580135195,82,301.43,7.62,-2.67,141.3
249,Konza,75,KE,1580135195,77,294.15,6.7,-1.74,37.13
250,Sisimiut,98,GL,1580135195,86,254.37,2.06,66.94,-53.67
251,Kodiak,90,US,1580135195,66,264.15,4.6,57.79,-152.41
252,Sovetskiy,100,RU,1580135195,94,252.8,4.24,61.36,63.58
253,Tevriz,100,RU,1580135195,93,258.63,3.95,57.51,72.4
254,Skopelos,40,GR,1580135195,76,287.15,1.5,39.12,23.72
255,Sambava,93,MG,1580135196,76,297.71,1.27,-14.27,50.17
256,Bengkulu,100,ID,1580135196,92,296.59,1.6,-3.8,102.27
257,Kantang,20,TH,1580135196,74,301.15,1.0,7.41,99.52
258,Puqi,99,CN,1580135196,85,275.67,0.77,29.72,113.88
259,Kapuskasing,90,CA,1580135197,92,266.15,5.1,49.42,-82.43
260,Gaza,92,PS,1580135197,63,290.15,4.1,31.5,34.47
261,Aklavik,90,CA,1580135197,68,245.15,4.6,68.22,-135.01
262,Uspenka,82,UA,1580135197,88,273.27,2.3,48.39,39.16
263,Itupiranga,75,BR,1580135099,100,298.15,3.1,-5.13,-49.33
264,Urumqi,0,CN,1580135196,92,261.15,1.0,43.8,87.6
265,Tsimmerbude,90,RU,1580135198,78,275.15,4.0,54.67,20.13
266,Yeppoon,40,AU,1580135198,69,300.15,2.6,-23.13,150.73
267,Rathkeale,75,IE,1580135198,86,279.15,5.1,52.52,-8.94
268,Diapaga,0,BF,1580135198,5,307.79,4.67,12.07,1.79
269,Clyde River,20,CA,1580135198,67,241.15,2.6,70.47,-68.59
270,Zhanaozen,3,KZ,1580135198,82,273.98,5.54,43.3,52.8
271,Pampas,83,PE,1580135198,46,286.18,2.28,-12.4,-74.9
272,Hearst,100,CA,1580135164,92,260.61,3.2,49.68,-83.67
273,Chara,100,RU,1580135199,73,257.32,1.19,56.91,118.26
274,Kokopo,100,PG,1580135199,75,301.29,3.46,-4.35,152.26
275,Hit,33,IQ,1580135199,59,286.16,2.59,33.64,42.83
276,Konakovo,100,RU,1580135199,78,268.37,2.48,56.7,36.77
277,Chui,69,UY,1580135200,55,297.79,6.5,-33.7,-53.46
278,Concordia,20,AR,1580135200,69,300.15,4.6,-31.39,-58.02
279,Kudahuvadhoo,100,MV,1580135200,75,300.62,5.63,2.67,72.89
280,Maiduguri,52,NG,1580135200,14,303.85,6.9,11.85,13.16
281,Alyangula,100,AU,1580135200,74,304.15,3.6,-13.85,136.42
282,Kant,42,IN,1580135200,67,288.68,1.34,27.8,79.8
283,Hasaki,75,JP,1580135201,93,278.15,5.7,35.73,140.83
284,Fort-Shevchenko,45,KZ,1580135201,89,276.75,7.6,44.51,50.26
285,Severnyy-Kospashskiy,100,RU,1580135201,83,248.15,1.82,59.09,57.8
286,Sioux Lookout,90,CA,1580135201,92,264.15,1.0,50.1,-91.92
287,Katherine,100,AU,1580135201,70,302.15,1.0,-14.47,132.27
288,Harper,18,LR,1580135201,65,303.51,3.33,4.38,-7.72
289,Manacapuru,20,BR,1580135202,70,303.15,4.1,-3.3,-60.62
290,Sao Filipe,0,CV,1580135202,50,298.63,9.58,14.9,-24.5
291,Luderitz,0,NA,1580135202,37,302.15,9.3,-26.65,15.16
292,Priargunsk,0,RU,1580135203,90,250.29,0.22,50.37,119.1
293,Cluses,100,FR,1580135203,66,282.15,3.1,46.06,6.58
294,Salalah,0,OM,1580135203,15,296.15,8.2,17.02,54.09
295,Acajutla,0,SV,1580135203,76,299.19,2.62,13.59,-89.83
296,Kasongo-Lunda,13,CD,1580135203,52,301.86,2.19,-6.47,16.82
297,Cap Malheureux,75,MU,1580135204,78,298.15,6.23,-19.98,57.61
298,Kourou,90,GF,1580135204,83,301.15,5.1,5.16,-52.65
299,Port-Gentil,40,GA,1580135204,75,305.15,4.1,-0.72,8.78
300,Pedernales,40,DO,1580135204,88,297.15,1.54,18.04,-71.74
301,Tupik,29,RU,1580135204,98,251.28,0.74,54.43,119.93
302,Ostrovnoy,100,RU,1580135205,78,265.91,5.43,68.05,39.51
303,Rzhyshchiv,75,UA,1580135205,80,273.15,4.0,49.97,31.05
304,Batagay,0,RU,1580135205,74,232.41,1.05,67.63,134.63
305,Ancud,90,CL,1580135205,63,289.15,3.1,-41.87,-73.82
306,Santiago,0,CL,1580134870,39,303.15,1.5,-33.46,-70.65
307,Beira,20,MZ,1580135205,70,304.15,7.7,-19.84,34.84
308,Aloleng,95,PH,1580135206,93,294.64,2.77,16.13,119.78
309,Dunedin,100,NZ,1580135206,70,288.71,2.68,-45.87,170.5
310,Sao Joao da Barra,75,BR,1580135206,74,302.15,3.6,-21.64,-41.05
311,Prosvet,100,RU,1580135206,95,258.65,2.29,55.57,65.08
312,Muros,90,ES,1580135206,100,288.71,6.2,42.78,-9.06
313,Tiksi,12,RU,1580135207,55,242.68,2.06,71.69,128.87
314,Balkhash,100,KZ,1580135207,90,269.48,7.04,46.84,74.98
315,Roald,75,NO,1580134962,93,277.15,1.5,62.58,6.13
316,Beringovskiy,100,RU,1580135207,89,261.48,2.82,63.05,179.32
317,Penzance,40,GB,1580135207,93,282.59,7.7,50.12,-5.54
318,Souillac,75,MU,1580135208,78,298.15,3.64,-20.52,57.52
319,Havelock,75,US,1580135208,75,282.15,2.1,34.88,-76.9
320,Antalaha,0,MG,1580135208,77,300.03,10.1,-14.9,50.28
321,Honiara,40,SB,1580135208,94,298.15,0.98,-9.43,159.95
322,Jamame,100,SO,1580135209,81,300.49,10.36,0.07,42.75
323,Zelenoborskiy,0,RU,1580135209,91,256.29,2.67,66.84,32.36
324,Thompson,90,CA,1580135135,83,253.15,1.5,55.74,-97.86
325,Alice Springs,46,AU,1580135209,15,301.15,3.1,-23.7,133.88
326,Wilmington,90,US,1580135018,76,283.15,3.1,34.23,-77.94
327,Henderson,1,US,1580135210,49,285.37,2.6,36.04,-114.98
328,Sai Buri,20,TH,1580135210,78,300.15,1.5,6.7,101.62
329,Comodoro Rivadavia,100,AR,1580134911,37,295.15,6.2,-45.87,-67.5
330,Segovia,90,ES,1580135213,100,278.15,2.1,41.17,-4.0
331,Luena,40,AO,1580135213,69,298.15,3.1,-11.78,19.92
332,Edgewater,90,US,1580135214,82,288.15,1.11,28.99,-80.9
333,Kirakira,100,SB,1580135214,85,298.95,0.93,-10.45,161.92
334,Jose de Freitas,75,BR,1580135214,78,301.15,1.0,-4.76,-42.58
335,Tuatapere,100,NZ,1580135214,96,287.04,1.34,-46.13,167.68
336,Codrington,99,AU,1580135214,75,289.13,1.96,-38.27,141.97
337,Broome,90,US,1580135214,92,274.82,4.1,42.25,-75.83
338,Shevchenkove,90,UA,1580135215,80,274.15,4.0,49.7,37.17
339,Caarapo,1,BR,1580135215,47,305.64,0.51,-22.63,-54.82
340,Chickasha,1,US,1580135215,59,278.15,2.31,35.05,-97.94
341,Fasa,0,IR,1580135215,50,284.15,0.61,28.94,53.65
342,Chitral,85,PK,1580135215,48,259.15,2.45,35.85,71.79
343,Trat,59,TH,1580135216,89,295.24,0.93,12.5,102.5
344,Lompoc,1,US,1580135216,81,284.82,6.7,34.64,-120.46
345,Haines Junction,100,CA,1580135216,97,255.84,1.03,60.75,-137.51
346,Lima,75,PE,1580134738,88,295.15,2.6,-12.04,-77.03
347,Chaniotis,100,GR,1580135216,100,286.48,0.89,40.0,23.58
348,Sakakah,63,SA,1580135073,21,288.15,2.36,29.97,40.21
349,Saint-Augustin,100,CA,1580135217,92,267.26,15.66,51.23,-58.65
350,Xining,67,CN,1580135217,56,264.11,1.33,36.62,101.77
351,Salima,22,MW,1580135217,78,300.03,2.69,-13.78,34.46
352,Erenhot,100,CN,1580135217,79,266.75,1.9,43.65,111.98
353,Faya,20,SA,1580135217,45,290.15,3.1,18.39,42.45
354,Carnot,8,CF,1580135217,11,309.83,2.62,4.94,15.87
355,Piacenza,20,IT,1580135217,76,284.82,0.5,45.05,9.7
356,Adrar,25,MR,1580135218,13,303.77,6.04,20.5,-10.07
357,Manokwari,35,ID,1580135218,89,296.44,2.22,-0.87,134.08
358,Mlowo,100,TZ,1580135218,98,290.93,2.63,-9.0,32.98
359,Shenzhen,20,CN,1580135218,62,286.15,7.0,22.55,114.07
360,Tres Arroyos,100,AR,1580135219,21,296.04,3.52,-38.37,-60.28
361,Zhigansk,0,RU,1580135219,85,237.87,0.3,66.77,123.37
362,Geraldton,0,AU,1580135219,69,296.15,2.1,-28.77,114.6
363,Ambajogai,5,IN,1580135219,31,299.5,3.4,18.73,76.38
364,Lagoa,100,PT,1580135219,93,289.6,8.07,39.05,-27.98
365,Tabas,0,IR,1580135219,34,283.15,3.1,33.6,56.92
366,Zhuanghe,100,CN,1580135219,68,275.46,2.7,39.7,122.99
367,Erzin,75,TR,1580135220,51,288.15,1.5,36.96,36.2
368,Hamilton,90,US,1580134801,92,273.71,4.1,39.18,-84.53
369,Yerbogachen,23,RU,1580135220,98,252.59,2.55,61.28,108.01
370,Pauini,100,BR,1580135220,91,298.73,0.14,-7.71,-66.98
371,Hollola,100,FI,1580135220,96,272.59,1.34,61.03,25.38
372,Torbay,90,CA,1580135221,100,277.59,7.7,47.67,-52.73
373,Nkhotakota,36,MW,1580135221,79,299.46,5.0,-12.93,34.3
374,Praia da Vitoria,40,PT,1580135221,88,291.15,13.28,38.73,-27.07
375,Ciudad Lazaro Cardenas,74,MX,1580135221,76,296.53,1.71,17.96,-102.2
376,Tuy Hoa,56,VN,1580135222,89,297.12,5.38,13.08,109.3
377,Dawei,1,MM,1580135222,60,297.9,2.9,14.08,98.2
378,Pedasi,100,PA,1580135222,72,299.7,4.23,7.53,-80.03
379,Chalus,40,IR,1580135222,81,283.15,1.0,36.66,51.42
380,Bilma,8,NE,1580135222,5,300.18,2.17,18.69,12.92
381,Goderich,98,CA,1580135222,87,273.15,0.45,43.75,-81.72
382,Korla,0,CN,1580135223,96,272.04,0.89,41.76,86.15
383,Birao,28,CF,1580135223,9,304.49,4.56,10.28,22.79
384,Sukhumi,0,GE,1580135223,55,280.14,1.79,43.0,41.02
385,Vila Velha,75,BR,1580135156,74,301.15,2.6,-20.33,-40.29
386,Methoni,75,GR,1580135223,77,288.71,2.1,36.82,21.7
387,Marabu,75,MY,1580135183,94,300.15,1.5,4.41,114.01
388,Kidal,100,ML,1580135224,5,304.18,2.94,18.44,1.41
389,San Andres,20,CO,1580134957,65,300.15,2.1,12.58,-81.7
390,Sarmanovo,75,RU,1580135224,92,263.15,6.0,55.26,52.59
391,Isangel,100,VU,1580135224,83,298.36,6.03,-19.55,169.27
392,Abucay,20,PH,1580135224,88,300.37,20.6,14.77,120.48
393,Iisalmi,90,FI,1580135224,85,263.15,3.1,63.56,27.19
394,Khonsa,99,IN,1580135225,88,282.28,1.59,27.02,95.57
395,Kabwe,60,ZM,1580135225,59,299.9,2.63,-14.45,28.45
396,Siukh,0,RU,1580135225,74,268.14,1.82,42.6,46.54
397,Gazojak,0,TM,1580135225,48,274.38,3.08,41.19,61.4
398,Chany,14,RU,1580135225,91,262.48,4.98,55.31,76.76
399,Ibresi,17,RU,1580135225,89,261.41,4.67,55.3,47.04
400,Anda,0,CN,1580135226,87,258.67,0.87,46.4,125.32
401,Kailua,20,US,1580135226,73,296.15,3.6,21.4,-157.74
402,Zaragoza,20,ES,1580135111,62,285.15,8.2,41.66,-0.88
403,Scarborough,42,GB,1580134994,81,280.93,4.6,54.28,-0.4
404,Zavetnoye,0,RU,1580135226,81,274.04,3.76,47.12,43.89
405,Kiryat Gat,80,IL,1580135226,63,290.15,4.1,31.61,34.76
406,Santa Marinella,40,IT,1580135227,67,288.15,1.5,42.03,11.85
407,North Myrtle Beach,90,US,1580135058,93,283.15,2.1,33.82,-78.68
408,Kieta,100,PG,1580135227,78,300.38,3.09,-6.22,155.63
409,Siniscola,20,IT,1580135227,59,290.15,9.8,40.57,9.69
410,Eureka,90,US,1580135227,81,284.15,2.6,40.8,-124.16
411,Kampene,50,CD,1580135227,54,301.64,1.37,-3.6,26.67
412,Cayenne,90,GF,1580134995,83,301.15,5.1,4.93,-52.33
413,Yoichi,0,JP,1580135228,44,266.48,1.65,43.2,140.77
414,Jurm,76,AF,1580135228,64,260.94,2.45,36.86,70.83
415,Nemuro,0,JP,1580135228,54,269.0,4.03,43.32,145.57
416,Sittwe,0,MM,1580135228,58,294.95,9.55,20.15,92.9
417,Birecik,100,TR,1580135228,53,284.15,3.1,37.03,37.99
418,Airai,95,TL,1580135229,97,294.58,0.19,-8.93,125.41
419,Inhambane,40,MZ,1580135229,66,304.15,6.7,-23.86,35.38
420,San Marcos de Colon,0,HN,1580135229,47,300.51,0.34,13.43,-86.8
421,Lingao,93,CN,1580135229,87,289.59,6.14,19.91,109.69
422,Ust-Tsilma,100,RU,1580135229,97,250.23,1.99,65.44,52.15
423,Provincia de Las Palmas,20,ES,1580135230,63,292.15,5.7,28.42,-14.01
424,Flinders,90,AU,1580135230,100,296.48,3.6,-34.58,150.86
425,Chowchilla,1,US,1580135230,100,280.37,2.85,37.12,-120.26
426,Vallenar,0,CL,1580135230,46,298.69,4.54,-28.57,-70.76
427,Shimabara,75,JP,1580135231,93,282.59,2.6,32.78,130.37
428,Makakilo City,1,US,1580135231,82,296.15,1.5,21.35,-158.09
429,Bodaybo,100,RU,1580135231,96,260.03,1.34,57.85,114.19
430,Salinopolis,100,BR,1580135231,83,300.54,7.06,-0.61,-47.36
431,Zhicheng,12,CN,1580135231,81,275.93,1.32,30.3,111.5
432,Srivardhan,0,IN,1580135231,79,296.16,3.69,18.03,73.02
433,Yaan,0,NG,1580135231,6,311.16,2.91,7.38,8.57
434,Heihe,96,CN,1580135232,70,254.15,2.0,50.24,127.49
435,Fuerte,83,PH,1580135232,92,292.2,1.92,17.54,120.36
436,Acarau,90,BR,1580135232,47,306.86,4.87,-2.89,-40.12
437,Thinadhoo,1,MV,1580135232,76,300.68,5.08,0.53,72.93
438,Manali,20,IN,1580135233,69,300.15,3.1,13.17,80.27
439,Terrak,40,NO,1580135233,64,275.15,8.2,65.09,12.37
440,Ugoofaaru,2,MV,1580135233,72,300.65,3.7,5.67,73.0
441,Te Anau,100,NZ,1580135233,94,286.92,2.61,-45.42,167.72
442,Dingzhou,100,CN,1580135233,69,274.15,2.0,38.51,115.0
443,Lumeje,53,AO,1580135233,66,299.11,2.15,-11.55,20.78
444,Marfino,100,RU,1580135234,68,271.15,3.0,55.7,37.38
445,Vestmannaeyjar,75,IS,1580135234,69,276.15,7.7,63.44,-20.27
446,Ganzhou,100,CN,1580135234,83,276.62,1.88,28.82,115.43
447,Bossangoa,0,CF,1580135234,9,309.96,2.54,6.49,17.46
448,Sena Madureira,84,BR,1580135234,84,302.19,1.68,-9.07,-68.66
449,Teya,100,RU,1580135235,81,260.58,3.24,60.38,92.63
450,Hanyang,96,CN,1580135235,82,279.26,0.83,32.14,105.51
451,Mareeba,75,AU,1580135235,94,299.26,1.5,-17.0,145.43
452,Inuvik,90,CA,1580135014,68,245.15,4.6,68.35,-133.72
453,Rocha,2,UY,1580135235,47,295.37,6.92,-34.48,-54.33
454,San Policarpo,15,PH,1580135235,89,298.21,3.13,12.18,125.51
455,Tiarei,56,PF,1580135236,78,299.15,1.0,-17.53,-149.33
456,Samarai,44,PG,1580135236,86,298.35,1.86,-10.62,150.67
457,Meadow Lake,40,US,1580135236,80,278.15,1.5,34.8,-106.54
458,Ilhabela,0,BR,1580135236,68,298.7,2.46,-23.78,-45.36
459,Houma,90,US,1580135237,100,286.48,5.1,29.6,-90.72
460,Honningsvag,40,NO,1580135237,85,267.15,3.6,70.98,25.97
461,Ostrzeszow,6,PL,1580135237,6,280.37,3.4,51.43,17.93
462,Husavik,75,IS,1580135237,80,273.15,11.3,66.04,-17.34
463,Mangrol,0,IN,1580135237,79,295.83,7.61,21.12,70.12
464,Tautira,84,PF,1580135238,78,299.15,1.0,-17.73,-149.15
465,Nome,1,US,1580135238,68,245.15,3.28,64.5,-165.41
466,Oodweyne,47,SO,1580135238,62,294.9,6.72,9.41,45.06
467,Brae,40,GB,1580135238,93,279.15,5.7,60.4,-1.35
468,Obo,79,CF,1580135238,11,307.86,2.85,5.4,26.49
469,Xicotencatl,0,MX,1580135238,73,290.93,0.89,23.02,-98.88
470,Puerto Baquerizo Moreno,75,EC,1580135238,94,298.15,3.1,-0.9,-89.6
471,Krasnosel'kup,100,RU,1580135239,94,259.31,6.94,65.7,82.47
472,Okha,38,RU,1580135239,89,252.16,3.58,53.57,142.95
473,Benalla,4,AU,1580135239,55,292.59,2.61,-36.55,145.98
474,Rehoboth,0,NA,1580135239,10,305.26,1.03,-23.32,17.08
475,Chateauroux,100,FR,1580135239,93,282.15,7.2,46.82,1.7
476,Puerto Madryn,9,AR,1580135066,14,302.22,8.78,-42.77,-65.04
477,Pangai,20,TO,1580135240,81,299.41,3.87,-19.8,-174.35
478,Cabo San Lucas,5,MX,1580135237,82,290.15,2.6,22.89,-109.91
479,Uribia,1,CO,1580135240,59,302.74,2.67,11.71,-72.27
480,Nhulunbuy,90,AU,1580135240,83,302.15,6.2,-12.23,136.77
481,Alamosa,20,US,1580134955,66,264.26,0.75,37.47,-105.87
482,Wanning,100,CN,1580135240,92,289.07,3.4,18.8,110.4
483,Nautla,0,MX,1580135241,73,295.86,1.25,20.22,-96.78
484,Dombarovskiy,100,RU,1580135241,95,267.55,8.3,50.76,59.54
485,Matelandia,20,BR,1580135241,40,304.15,3.6,-25.24,-54.0
486,Batsfjord,20,NO,1580135241,78,267.15,6.2,70.63,29.72
487,Wairoa,0,NZ,1580135241,84,295.37,0.89,-39.03,177.37
488,Sterling,75,US,1580135241,69,279.82,3.6,39.01,-77.43
489,Vilcun,0,CL,1580135242,56,293.15,2.1,-38.65,-72.23
490,Reconquista,98,AR,1580135242,22,308.14,1.84,-29.15,-59.65
491,Narsaq,75,GL,1580135242,51,263.15,1.5,60.92,-46.05
492,Panama,20,PA,1580135207,83,303.15,4.6,8.99,-79.52
493,Bure,0,ET,1580135242,15,298.69,2.77,10.7,37.07
494,Adrian,90,US,1580135243,80,274.26,2.1,41.9,-84.04
495,Calama,40,CL,1580135243,42,293.15,1.5,-22.47,-68.93
496,Teculutan,7,GT,1580135243,68,295.72,0.83,14.98,-89.72
497,Pacific Grove,1,US,1580135243,87,282.04,2.6,36.62,-121.92
498,Les Cayes,24,HT,1580135244,67,298.67,2.34,18.2,-73.75
499,Uray,100,RU,1580135244,95,254.33,3.91,60.12,64.78
500,Debre Tabor,0,ET,1580135244,19,295.23,3.97,11.85,38.02
501,Novaya Igirma,40,RU,1580135244,92,259.1,1.65,57.13,103.91
502,Camrose,0,CA,1580135244,92,268.71,2.35,53.02,-112.84
503,Najran,0,SA,1580135197,29,292.15,5.1,17.49,44.13
504,Semey,90,KZ,1580135245,86,271.15,8.0,50.41,80.23
505,Chichica,56,PA,1580135245,74,300.15,1.5,8.49,-82.16
506,Port Lincoln,0,AU,1580135245,84,289.89,4.59,-34.73,135.87
507,Port Hardy,40,CA,1580135245,93,275.15,2.6,50.7,-127.42
508,Bom Jesus,100,BR,1580135245,87,296.74,1.12,-9.07,-44.36
509,Nantucket,1,US,1580135245,69,278.15,5.7,41.28,-70.1
510,Banda Aceh,100,ID,1580135003,93,296.49,1.39,5.56,95.32
511,Cananea,89,MX,1580135166,90,280.93,1.34,30.95,-110.3
512,Chingirlau,98,KZ,1580135246,79,271.89,10.3,51.09,54.08
513,San Cristobal,40,VE,1580134983,83,297.15,2.6,7.77,-72.22
514,Nuuk,40,GL,1580135246,78,262.15,3.6,64.18,-51.72
515,Antsohihy,82,MG,1580135246,75,301.7,1.33,-14.88,47.99
516,Leshukonskoye,56,RU,1580135246,97,248.43,0.73,64.9,45.76
517,Kangaatsiaq,100,GL,1580135247,89,260.16,6.17,68.31,-53.46
518,Camana,45,PE,1580135247,69,297.06,2.56,-16.62,-72.71
519,Qaqortoq,75,GL,1580135247,51,263.15,1.5,60.72,-46.03
520,Meulaboh,100,ID,1580135247,71,302.14,1.56,4.14,96.13
521,Mayskiy,0,RU,1580135247,74,276.15,4.0,47.69,40.1
522,Abu Dhabi,20,AE,1580134971,52,292.15,6.7,24.47,54.37
523,Sechura,33,PE,1580135248,89,295.86,2.38,-5.56,-80.82
524,Cao Bang,78,VN,1580135248,71,283.23,0.92,22.67,106.25
525,Canavieiras,27,BR,1580135248,62,302.94,4.81,-15.68,-38.95
526,Sarahan,91,IN,1580135248,84,263.42,3.0,31.52,77.8
527,LaBelle,1,US,1580135222,77,289.82,2.6,26.76,-81.44
528,Salme,20,NP,1580135249,81,283.15,1.5,28.04,85.09
529,San Rafael,0,AR,1580135249,25,300.5,4.82,-34.62,-68.33
530,Piacabucu,75,BR,1580135249,64,303.05,4.21,-10.41,-36.43
531,Yazoo City,90,US,1580135249,100,284.15,2.1,32.86,-90.41
532,Dudinka,40,RU,1580135249,77,255.15,4.0,69.41,86.18
533,Winsum,90,NL,1580135088,87,282.15,4.1,53.33,6.52
534,Mackenzie,90,CA,1580135250,97,273.15,2.6,55.3,-123.17
535,Polyarny,99,RU,1580135250,75,246.15,1.0,69.2,33.45
536,Nuevitas,0,CU,1580135250,100,295.15,1.5,21.55,-77.26
537,Bagdarin,0,RU,1580135250,76,257.66,1.55,54.43,113.6
538,Sirte,51,LY,1580135250,62,290.73,5.86,31.21,16.59
539,Bara,48,NG,1580135250,10,306.38,4.25,10.37,10.73
540,Ambovombe,100,MG,1580135251,78,297.04,3.53,-25.17,46.08
541,Los Llanos de Aridane,40,ES,1580135251,60,294.15,2.6,28.66,-17.92
542,Keita,6,NE,1580135251,2,303.15,3.1,14.76,5.77
543,Mayo,40,US,1580135251,65,279.82,4.6,38.89,-76.51
544,Roblin,0,CA,1580135252,87,255.67,0.79,51.23,-101.36
545,Ojdula,100,RO,1580135252,81,279.26,0.56,45.98,26.25
546,Kappeln,75,DE,1580135252,93,281.15,2.6,54.66,9.93
547,Lohja,75,FI,1580135174,97,274.82,5.1,60.25,24.07
548,Katsuura,75,JP,1580135252,93,277.15,7.7,35.13,140.3
549,Tighina,49,MD,1580135252,61,281.15,2.6,46.83,29.47
550,Rincon,90,US,1580135253,100,283.15,2.69,32.3,-81.24
551,Sorong,100,ID,1580135253,89,296.39,0.83,-0.88,131.25
552,Coquimbo,90,CL,1580135253,77,292.15,3.1,-29.95,-71.34
553,Sola,100,VU,1580135253,78,301.44,6.43,-13.88,167.55
554,Grindavik,75,IS,1580135253,86,274.15,3.1,63.84,-22.43
555,Aksay,0,RU,1580135253,74,276.15,4.0,47.26,39.87
556,La Ciotat,75,FR,1580135254,82,287.15,4.6,43.17,5.6
557,Maralal,95,KE,1580135254,60,295.84,6.11,1.1,36.7
558,Puerto El Triunfo,16,SV,1580135254,65,300.15,1.0,13.28,-88.55
559,Weligama,100,LK,1580135254,79,298.01,2.42,5.97,80.42
560,Waingapu,77,ID,1580135254,71,303.02,0.8,-9.66,120.26
561,Wuchang,21,CN,1580135254,68,261.12,1.43,44.91,127.15
562,Sao Gabriel,0,BR,1580135255,24,305.41,3.66,-30.34,-54.32
563,Camopi,99,GF,1580135255,72,301.43,2.06,3.17,-52.32
564,Barcelos,75,PT,1580135255,93,287.15,4.1,41.54,-8.62
565,Alexandria,40,EG,1580135255,55,291.15,2.1,31.22,29.96
566,Florence,75,IT,1580135159,93,284.26,0.5,43.77,11.25
